[
  {
    "name": "Suki",
    "latitude": 40.727062,
    "longitude": -73.9861004,
    "address": "86 E. 7th St.",
    "city": "New York",
    "region": "New York State"
  },
  {
    "name": "Coarse",
    "latitude": 40.7392199,
    "longitude": -74.0034825,
    "address": "306 W. 13th St.",
    "city": "New York",
    "region": "New York State"
  },
  {
    "name": "Takashi",
    "latitude": 40.7314887,
    "longitude": -74.0064664,
    "address": "456 Hudson St.",
    "city": "New York",
    "region": "New York State"
  },
  {
    "name": "Kura",
    "latitude": 40.7267617,
    "longitude": -73.9834994,
    "address": "130 St. Marks Pl.",
    "city": "New York",
    "region": "New York State"
  },
  {
    "name": "Spy C Cuisine",
    "latitude": 40.7191046,
    "longitude": -73.8423766,
    "address": "72-06 Austin St.",
    "city": "Forest Hills",
    "region": "New York State"
  },
  {
    "name": "Mtskheta Café",
    "latitude": 40.59683,
    "longitude": -73.985405,
    "address": "2568 86th St.",
    "city": "Brooklyn",
    "region": "New York State"
  },
  {
    "name": "Tre Otto",
    "latitude": 40.788353,
    "longitude": -73.95335,
    "address": "1410 Madison Ave.",
    "city": "New York",
    "region": "New York State"
  },
  {
    "name": "El Molcajete",
    "latitude": 40.828526,
    "longitude": -73.87981,
    "address": "1506-1508 Westchester Ave.",
    "city": "Bronx",
    "region": "New York State"
  },
  {
    "name": "Gregory’s 26 Corner Taverna",
    "latitude": 40.7764686,
    "longitude": -73.915939,
    "address": "26-02 23rd Ave.",
    "city": "Long Island City",
    "region": "New York State"
  },
  {
    "name": "The Simone",
    "latitude": 40.7768,
    "longitude": -73.957054,
    "address": "151 E. 82nd St.",
    "city": "New York",
    "region": "New York State"
  },
  {
    "name": "Tong Sam Gyup Goo Yi",
    "latitude": 40.762066,
    "longitude": -73.803024,
    "address": "162-23 Depot Rd.",
    "city": "Flushing",
    "region": "New York State"
  },
  {
    "name": "Urubamba",
    "latitude": 40.750158,
    "longitude": -73.8797584,
    "address": "86-20 37th Ave.",
    "city": "Jackson Heights",
    "region": "New York State"
  },
  {
    "name": "Houdini Kitchen Laboratory",
    "latitude": 40.6941989,
    "longitude": -73.9021382,
    "address": "15-63 Decatur St.",
    "city": "Ridgewood",
    "region": "New York State"
  },
  {
    "name": "Taiwanese Gourmet",
    "latitude": 40.73978,
    "longitude": -73.87867,
    "address": "84-02 Broadway",
    "city": "Elmhurst",
    "region": "New York State"
  },
  {
    "name": "Purple Yam",
    "latitude": 40.64047,
    "longitude": -73.96565,
    "address": "1314 Cortelyou Rd.",
    "city": "Brooklyn",
    "region": "New York State"
  },
  {
    "name": "Sutton Inn",
    "latitude": 40.756664,
    "longitude": -73.96488,
    "address": "347 E. 54th St.",
    "city": "New York",
    "region": "New York State"
  },
  {
    "name": "Da Xi Sichuan",
    "latitude": 40.759773,
    "longitude": -73.82923,
    "address": "136-20 Roosevelt Ave.,  Ste. 2R",
    "city": "Flushing",
    "region": "New York State"
  },
  {
    "name": "Kiki’s",
    "latitude": 40.714493,
    "longitude": -73.99198,
    "address": "130 Division St.",
    "city": "New York",
    "region": "New York State"
  },
  {
    "name": "Sabry's",
    "latitude": 40.76834,
    "longitude": -73.91112,
    "address": "24-25 Steinway St.",
    "city": "Astoria",
    "region": "New York State"
  },
  {
    "name": "Thái So´n",
    "latitude": 40.7169328,
    "longitude": -73.9995579,
    "address": "89 Baxter St.",
    "city": "New York",
    "region": "New York State"
  },
  {
    "name": "Bamboo Garden",
    "latitude": 40.633095,
    "longitude": -74.01176,
    "address": "6409 Eighth Ave.",
    "city": "Brooklyn",
    "region": "New York State"
  },
  {
    "name": "Cheburechnaya",
    "latitude": 40.72769,
    "longitude": -73.8642,
    "address": "92-09 63rd Dr.",
    "city": "Rego Park",
    "region": "New York State"
  },
  {
    "name": "Georgian Cuisine",
    "latitude": 40.625412,
    "longitude": -74.03022,
    "address": "8309 Third Ave.",
    "city": "Brooklyn",
    "region": "New York State"
  },
  {
    "name": "Sagara",
    "latitude": 40.6378423,
    "longitude": -74.0797638,
    "address": "98 Victory Blvd.",
    "city": "Staten Island",
    "region": "New York State"
  },
  {
    "name": "Shanghai Heping",
    "latitude": 40.7174018,
    "longitude": -73.9972882,
    "address": "104 Mott St.",
    "city": "New York",
    "region": "New York State"
  },
  {
    "name": "Tamarind",
    "latitude": 40.719215,
    "longitude": -74.008865,
    "address": "99 Hudson St.",
    "city": "New York",
    "region": "New York State"
  }
]